{"name": "FTS International at 777 Main", "is_renting": 1, "lat": 32.75406, "station_id": "bcycle_fortworth_3124", "channel": "US-Bike-Sharing-Channel", "num_bikes_available": 5, "country_code": "US", "last_reported": 1495379614, "is_returning": 1, "is_installed": 1, "lon": -97.32967, "address": "643 Commerce Street", "num_docks_available": 12, "publisher": "fortworth.bcycle.com"}
{"name": "Forest Park & Park Hill", "is_renting": 1, "lat": 32.71589, "station_id": "bcycle_fortworth_3125", "channel": "US-Bike-Sharing-Channel", "num_bikes_available": 6, "country_code": "US", "last_reported": 1495379614, "is_returning": 1, "is_installed": 1, "lon": -97.35247, "address": "2407 Park Hill Drive", "num_docks_available": 5, "publisher": "fortworth.bcycle.com"}
{"name": "WestBend", "is_renting": 1, "lat": 32.72658, "station_id": "bcycle_fortworth_3527", "channel": "US-Bike-Sharing-Channel", "num_bikes_available": 5, "country_code": "US", "last_reported": 1495379614, "is_returning": 1, "is_installed": 1, "lon": -97.35961, "address": "1701 River Run ", "num_docks_available": 5, "publisher": "fortworth.bcycle.com"}
{"name": "Shamblee Library", "is_renting": 1, "lat": 32.7334, "station_id": "bcycle_fortworth_3667", "channel": "US-Bike-Sharing-Channel", "num_bikes_available": 6, "country_code": "US", "last_reported": 1495379614, "is_returning": 1, "is_installed": 1, "lon": -97.31854, "address": "1062 Evans Ave.", "num_docks_available": 7, "publisher": "fortworth.bcycle.com"}
{"availableBikes": 4, "latitude": 41.76663823695, "totalDocks": 11, "statusKey": 1, "stAddress2": "", "landMark": "496", "postalCode": "", "testStation": false, "location": "", "availableDocks": 6, "status": "IN_SERVICE", "longitude": -87.5764501141, "lastCommunicationTime": "2017-05-21 10:13:35", "id": 11, "statusValue": "In Service", "is_renting": true, "channel": "US-Bike-Sharing-Channel", "stationName": "Jeffery Blvd & 71st St", "country_code": "US", "stAddress1": "Jeffery Blvd & 71st St", "altitude": "", "city": "Chicago", "publisher": "feeds.divvybikes.com"}
{"availableBikes": 6, "latitude": 41.88327159253, "totalDocks": 19, "statusKey": 1, "stAddress2": "", "landMark": "536", "postalCode": "", "testStation": false, "location": "", "availableDocks": 11, "status": "IN_SERVICE", "longitude": -87.6373132869, "lastCommunicationTime": "2017-05-21 10:13:25", "id": 18, "statusValue": "In Service", "is_renting": true, "channel": "US-Bike-Sharing-Channel", "stationName": "Wacker Dr & Washington St", "country_code": "US", "stAddress1": "Wacker Dr & Washington St", "altitude": "", "city": "Chicago", "publisher": "feeds.divvybikes.com"}
{"availableBikes": 8, "latitude": 41.89186, "totalDocks": 15, "statusKey": 1, "stAddress2": "", "landMark": "262", "postalCode": "", "testStation": false, "location": "240 E.Grand Ave.", "availableDocks": 6, "status": "IN_SERVICE", "longitude": -87.62062, "lastCommunicationTime": "2017-05-21 10:13:31", "id": 24, "statusValue": "In Service", "is_renting": true, "channel": "US-Bike-Sharing-Channel", "stationName": "Fairbanks Ct & Grand Ave", "country_code": "US", "stAddress1": "Fairbanks Ct & Grand Ave", "altitude": "", "city": "Chicago", "publisher": "feeds.divvybikes.com"}
{"availableBikes": 7, "latitude": 41.91021, "totalDocks": 19, "statusKey": 1, "stAddress2": "", "landMark": "174", "postalCode": "", "testStation": false, "location": "1530 N.Larrabee st", "availableDocks": 12, "status": "IN_SERVICE", "longitude": -87.6435, "lastCommunicationTime": "2017-05-21 10:13:28", "id": 27, "statusValue": "In Service", "is_renting": true, "channel": "US-Bike-Sharing-Channel", "stationName": "Larrabee St & North Ave", "country_code": "US", "stAddress1": "Larrabee St & North Ave", "altitude": "", "city": "Chicago", "publisher": "feeds.divvybikes.com"}
{"availableBikes": 7, "latitude": 41.876243, "totalDocks": 15, "statusKey": 1, "stAddress2": "", "landMark": "040", "postalCode": "", "testStation": false, "location": "420 w. Michigan", "availableDocks": 8, "status": "IN_SERVICE", "longitude": -87.624426, "lastCommunicationTime": "2017-05-21 10:10:21", "id": 45, "statusValue": "In Service", "is_renting": true, "channel": "US-Bike-Sharing-Channel", "stationName": "Michigan Ave & Congress Pkwy", "country_code": "US", "stAddress1": "Michigan Ave & Congress Pkwy", "altitude": "", "city": "Chicago", "publisher": "feeds.divvybikes.com"}
{"availableBikes": 6, "latitude": 41.888716036, "totalDocks": 27, "statusKey": 1, "stAddress2": "", "landMark": "039", "postalCode": "", "testStation": false, "location": "368 N. Desplaines St.", "availableDocks": 20, "status": "IN_SERVICE", "longitude": -87.6444478533, "lastCommunicationTime": "2017-05-21 10:13:33", "id": 56, "statusValue": "In Service", "is_renting": true, "channel": "US-Bike-Sharing-Channel", "stationName": "Desplaines St & Kinzie St", "country_code": "US", "stAddress1": "Desplaines St & Kinzie St", "altitude": "", "city": "Chicago", "publisher": "feeds.divvybikes.com"}
