{"name": "Temple University Station", "is_renting": 1, "lat": 39.98078, "station_id": "bcycle_indego_3008", "channel": "US-Bike-Sharing-Channel", "num_bikes_available": 13, "country_code": "US", "last_reported": 1495379593, "is_returning": 1, "is_installed": 1, "lon": -75.15055, "address": "1076 Berks Street", "num_docks_available": 6, "publisher": "www.rideindego.com"}
{"name": "33rd & Market", "is_renting": 1, "lat": 39.95576, "station_id": "bcycle_indego_3009", "channel": "US-Bike-Sharing-Channel", "num_bikes_available": 4, "country_code": "US", "last_reported": 1495379593, "is_returning": 1, "is_installed": 1, "lon": -75.18982, "address": "3318 Market St.", "num_docks_available": 8, "publisher": "www.rideindego.com"}
{"name": "15th & Spruce", "is_renting": 1, "lat": 39.94711, "station_id": "bcycle_indego_3010", "channel": "US-Bike-Sharing-Channel", "num_bikes_available": 13, "country_code": "US", "last_reported": 1495379593, "is_returning": 1, "is_installed": 1, "lon": -75.16618, "address": "1483 Spruce St.", "num_docks_available": 6, "publisher": "www.rideindego.com"}
{"name": "38th & Lancaster", "is_renting": 1, "lat": 39.96046, "station_id": "bcycle_indego_3011", "channel": "US-Bike-Sharing-Channel", "num_bikes_available": 5, "country_code": "US", "last_reported": 1495379593, "is_returning": 1, "is_installed": 1, "lon": -75.19701, "address": "3801 Lancaster Avenue", "num_docks_available": 3, "publisher": "www.rideindego.com"}
{"name": "21st & Catharine", "is_renting": 1, "lat": 39.94218, "station_id": "bcycle_indego_3012", "channel": "US-Bike-Sharing-Channel", "num_bikes_available": 4, "country_code": "US", "last_reported": 1495379593, "is_returning": 1, "is_installed": 1, "lon": -75.17747, "address": "807 S. 21st St.", "num_docks_available": 23, "publisher": "www.rideindego.com"}
{"name": "6th & Fairmount", "is_renting": 1, "lat": 39.96317, "station_id": "bcycle_indego_3013", "channel": "US-Bike-Sharing-Channel", "num_bikes_available": 7, "country_code": "US", "last_reported": 1495379593, "is_returning": 1, "is_installed": 1, "lon": -75.14792, "address": "674 N. 6th St.", "num_docks_available": 8, "publisher": "www.rideindego.com"}
{"name": "4th & Walnut, NPS", "is_renting": 1, "lat": 39.94735, "station_id": "bcycle_indego_3015", "channel": "US-Bike-Sharing-Channel", "num_bikes_available": 6, "country_code": "US", "last_reported": 1495379593, "is_returning": 1, "is_installed": 1, "lon": -75.14886, "address": "422 Walnut St.", "num_docks_available": 5, "publisher": "www.rideindego.com"}
{"name": "11th & Poplar, John F. Street Community Center", "is_renting": 1, "lat": 39.96892, "station_id": "bcycle_indego_3016", "channel": "US-Bike-Sharing-Channel", "num_bikes_available": 9, "country_code": "US", "last_reported": 1495379593, "is_returning": 1, "is_installed": 1, "lon": -75.1547, "address": "1100 Poplar St.", "num_docks_available": 6, "publisher": "www.rideindego.com"}
{"name": "6th & Berks", "is_renting": 1, "lat": 39.98003, "station_id": "bcycle_indego_3017", "channel": "US-Bike-Sharing-Channel", "num_bikes_available": 6, "country_code": "US", "last_reported": 1495379593, "is_returning": 1, "is_installed": 1, "lon": -75.14371, "address": "527 W. Berks St.", "num_docks_available": 9, "publisher": "www.rideindego.com"}
{"name": "12th & Filbert", "is_renting": 1, "lat": 39.95273, "station_id": "bcycle_indego_3018", "channel": "US-Bike-Sharing-Channel", "num_bikes_available": 18, "country_code": "US", "last_reported": 1495379593, "is_returning": 1, "is_installed": 1, "lon": -75.15979, "address": "1200 Filbert St.", "num_docks_available": 0, "publisher": "www.rideindego.com"}
