{"name": "33rd & Dauphin", "is_renting": 1, "lat": 39.99179, "station_id": "bcycle_indego_3106", "channel": "US-Bike-Sharing-Channel", "num_bikes_available": 5, "country_code": "US", "last_reported": 1495379593, "is_returning": 1, "is_installed": 1, "lon": -75.18637, "address": "2300 N. 33rd Street", "num_docks_available": 18, "publisher": "www.rideindego.com"}
{"name": "33rd & Reservoir", "is_renting": 1, "lat": 39.98203, "station_id": "bcycle_indego_3107", "channel": "US-Bike-Sharing-Channel", "num_bikes_available": 10, "country_code": "US", "last_reported": 1495379593, "is_returning": 1, "is_installed": 1, "lon": -75.18866, "address": "1626 N. 33rd Street", "num_docks_available": 12, "publisher": "www.rideindego.com"}
{"name": "15th & Market", "is_renting": 1, "lat": 39.95316, "station_id": "bcycle_indego_3108", "channel": "US-Bike-Sharing-Channel", "num_bikes_available": 21, "country_code": "US", "last_reported": 1495379593, "is_returning": 1, "is_installed": 1, "lon": -75.16551, "address": "1515 Market Street", "num_docks_available": 1, "publisher": "www.rideindego.com"}
{"name": "Parkside & Girard", "is_renting": 1, "lat": 39.97486, "station_id": "bcycle_indego_3109", "channel": "US-Bike-Sharing-Channel", "num_bikes_available": 1, "country_code": "US", "last_reported": 1495379593, "is_returning": 1, "is_installed": 1, "lon": -75.20524, "address": "4105 Parkside Ave.", "num_docks_available": 18, "publisher": "www.rideindego.com"}
{"name": "Del. River Trail & Penn St.", "is_renting": 1, "lat": 39.96175, "station_id": "bcycle_indego_3110", "channel": "US-Bike-Sharing-Channel", "num_bikes_available": 6, "country_code": "US", "last_reported": 1495379593, "is_returning": 1, "is_installed": 1, "lon": -75.13641, "address": "779 Delaware Ave", "num_docks_available": 13, "publisher": "www.rideindego.com"}
{"name": "Parkside & Belmont, Case Buildling", "is_renting": 1, "lat": 39.97804, "station_id": "bcycle_indego_3111", "channel": "US-Bike-Sharing-Channel", "num_bikes_available": 3, "country_code": "US", "last_reported": 1495379593, "is_returning": 1, "is_installed": 1, "lon": -75.2122, "address": "4300 S. Concourse St.", "num_docks_available": 16, "publisher": "www.rideindego.com"}
{"name": "48th & Spruce", "is_renting": 1, "lat": 39.95373, "station_id": "bcycle_indego_3112", "channel": "US-Bike-Sharing-Channel", "num_bikes_available": 4, "country_code": "US", "last_reported": 1495379593, "is_returning": 1, "is_installed": 1, "lon": -75.21825, "address": "310 S. 48th Street", "num_docks_available": 14, "publisher": "www.rideindego.com"}
{"name": "Philadelphia Zoo", "is_renting": 1, "lat": 39.97472, "station_id": "bcycle_indego_3113", "channel": "US-Bike-Sharing-Channel", "num_bikes_available": 7, "country_code": "US", "last_reported": 1495379593, "is_returning": 1, "is_installed": 1, "lon": -75.19781, "address": "1046 N. 34th Street", "num_docks_available": 5, "publisher": "www.rideindego.com"}
{"name": "22nd & Federal", "is_renting": 1, "lat": 39.93775, "station_id": "bcycle_indego_3114", "channel": "US-Bike-Sharing-Channel", "num_bikes_available": 6, "country_code": "US", "last_reported": 1495379593, "is_returning": 1, "is_installed": 1, "lon": -75.18012, "address": "22nd & Federal St.", "num_docks_available": 11, "publisher": "www.rideindego.com"}
{"name": "19th & Girard, PTTI", "is_renting": 1, "lat": 39.97263, "station_id": "bcycle_indego_3115", "channel": "US-Bike-Sharing-Channel", "num_bikes_available": 9, "country_code": "US", "last_reported": 1495379593, "is_returning": 1, "is_installed": 1, "lon": -75.16757, "address": "1901 W. Girard St..", "num_docks_available": 14, "publisher": "www.rideindego.com"}
