{"name": "Roosevelt Park", "is_renting": 1, "lat": 29.40055, "station_id": "bcycle_sanantonio_2137", "channel": "US-Bike-Sharing-Channel", "num_bikes_available": 9, "country_code": "US", "last_reported": 1495379605, "is_returning": 1, "is_installed": 1, "lon": -98.48852, "address": "42 Mission Road", "num_docks_available": 3, "publisher": "sanantonio.bcycle.com"}
{"name": "Concepcion Park", "is_renting": 1, "lat": 29.38812, "station_id": "bcycle_sanantonio_2156", "channel": "US-Bike-Sharing-Channel", "num_bikes_available": 9, "country_code": "US", "last_reported": 1495379605, "is_returning": 1, "is_installed": 1, "lon": -98.49738, "address": "600 E. Theo Ave.", "num_docks_available": 9, "publisher": "sanantonio.bcycle.com"}
{"name": "Mission Concepcion", "is_renting": 1, "lat": 29.38994, "station_id": "bcycle_sanantonio_2157", "channel": "US-Bike-Sharing-Channel", "num_bikes_available": 10, "country_code": "US", "last_reported": 1495379605, "is_returning": 1, "is_installed": 1, "lon": -98.49174, "address": "807 Mission Rd.", "num_docks_available": 8, "publisher": "sanantonio.bcycle.com"}
{"name": "Mission Road", "is_renting": 1, "lat": 29.37846, "station_id": "bcycle_sanantonio_2158", "channel": "US-Bike-Sharing-Channel", "num_bikes_available": 12, "country_code": "US", "last_reported": 1495379605, "is_returning": 1, "is_installed": 1, "lon": -98.48889, "address": "Mission Rd. at Mission Pkwy", "num_docks_available": 0, "publisher": "sanantonio.bcycle.com"}
{"name": "VFW Blvd", "is_renting": 1, "lat": 29.37011, "station_id": "bcycle_sanantonio_2159", "channel": "US-Bike-Sharing-Channel", "num_bikes_available": 10, "country_code": "US", "last_reported": 1495379605, "is_returning": 1, "is_installed": 1, "lon": -98.47693, "address": "800 VFW Blvd.", "num_docks_available": 4, "publisher": "sanantonio.bcycle.com"}
{"name": "Mission San Jose", "is_renting": 1, "lat": 29.36014, "station_id": "bcycle_sanantonio_2160", "channel": "US-Bike-Sharing-Channel", "num_bikes_available": 13, "country_code": "US", "last_reported": 1495379605, "is_returning": 1, "is_installed": 1, "lon": -98.47968, "address": "6701 San Jose Dr.", "num_docks_available": 8, "publisher": "sanantonio.bcycle.com"}
{"name": "Ace Mart", "is_renting": 1, "lat": 29.41094, "station_id": "bcycle_sanantonio_2210", "channel": "US-Bike-Sharing-Channel", "num_bikes_available": 7, "country_code": "US", "last_reported": 1495379605, "is_returning": 1, "is_installed": 1, "lon": -98.48728, "address": "936 S. Presa St.", "num_docks_available": 15, "publisher": "sanantonio.bcycle.com"}
{"name": "Sunset Station", "is_renting": 1, "lat": 29.4196, "station_id": "bcycle_sanantonio_2211", "channel": "US-Bike-Sharing-Channel", "num_bikes_available": 8, "country_code": "US", "last_reported": 1495379605, "is_returning": 1, "is_installed": 1, "lon": -98.4783, "address": "487 Hoefgen Ave.", "num_docks_available": 10, "publisher": "sanantonio.bcycle.com"}
{"name": "SA Zoo", "is_renting": 1, "lat": 29.4611, "station_id": "bcycle_sanantonio_2212", "channel": "US-Bike-Sharing-Channel", "num_bikes_available": 12, "country_code": "US", "last_reported": 1495379605, "is_returning": 1, "is_installed": 1, "lon": -98.47447, "address": "3874 N St. Mary's", "num_docks_available": 10, "publisher": "sanantonio.bcycle.com"}
{"name": "YMCA Tripoint", "is_renting": 1, "lat": 29.45447, "station_id": "bcycle_sanantonio_2213", "channel": "US-Bike-Sharing-Channel", "num_bikes_available": 5, "country_code": "US", "last_reported": 1495379605, "is_returning": 1, "is_installed": 1, "lon": -98.48267, "address": "3233 N St. Mary's", "num_docks_available": 9, "publisher": "sanantonio.bcycle.com"}
