{"name": "T&P South", "is_renting": 1, "lat": 32.74381, "station_id": "bcycle_fortworth_2223", "channel": "US-Bike-Sharing-Channel", "num_bikes_available": 5, "country_code": "US", "last_reported": 1495379614, "is_returning": 1, "is_installed": 1, "lon": -97.32741, "address": "280 W. Vickery Blvd.", "num_docks_available": 10, "publisher": "fortworth.bcycle.com"}
{"name": "Magnolia & Lipscomb", "is_renting": 1, "lat": 32.73055, "station_id": "bcycle_fortworth_2224", "channel": "US-Bike-Sharing-Channel", "num_bikes_available": 6, "country_code": "US", "last_reported": 1495379614, "is_returning": 1, "is_installed": 1, "lon": -97.33349, "address": "907 W. Magnolia Ave.", "num_docks_available": 5, "publisher": "fortworth.bcycle.com"}
{"name": "Magnolia & Henderson", "is_renting": 1, "lat": 32.73048, "station_id": "bcycle_fortworth_2225", "channel": "US-Bike-Sharing-Channel", "num_bikes_available": 2, "country_code": "US", "last_reported": 1495379614, "is_returning": 1, "is_installed": 1, "lon": -97.33773, "address": "1302 S. Henderson St.", "num_docks_available": 9, "publisher": "fortworth.bcycle.com"}
{"name": "UNT Health Science Center", "is_renting": 1, "lat": 32.74979, "station_id": "bcycle_fortworth_2226", "channel": "US-Bike-Sharing-Channel", "num_bikes_available": 5, "country_code": "US", "last_reported": 1495379614, "is_returning": 1, "is_installed": 1, "lon": -97.36943, "address": "955 Montgomery St.", "num_docks_available": 4, "publisher": "fortworth.bcycle.com"}
{"name": "ITC North", "is_renting": 1, "lat": 32.75235, "station_id": "bcycle_fortworth_2227", "channel": "US-Bike-Sharing-Channel", "num_bikes_available": 9, "country_code": "US", "last_reported": 1495379614, "is_returning": 1, "is_installed": 1, "lon": -97.32626, "address": "1001 Jones St.", "num_docks_available": 8, "publisher": "fortworth.bcycle.com"}
{"name": "ITC South", "is_renting": 0, "lat": 32.75099, "station_id": "bcycle_fortworth_2228", "channel": "US-Bike-Sharing-Channel", "num_bikes_available": 6, "country_code": "US", "last_reported": 1495379614, "is_returning": 0, "is_installed": 1, "lon": -97.32539, "address": "1185 Jones St.", "num_docks_available": 3, "publisher": "fortworth.bcycle.com"}
{"name": "The T Offices", "is_renting": 1, "lat": 32.74577, "station_id": "bcycle_fortworth_2229", "channel": "US-Bike-Sharing-Channel", "num_bikes_available": 7, "country_code": "US", "last_reported": 1495379614, "is_returning": 1, "is_installed": 1, "lon": -97.31137, "address": "1600 East Lancaster", "num_docks_available": 4, "publisher": "fortworth.bcycle.com"}
{"name": "S. Main & Daggett", "is_renting": 1, "lat": 32.74245, "station_id": "bcycle_fortworth_2231", "channel": "US-Bike-Sharing-Channel", "num_bikes_available": 6, "country_code": "US", "last_reported": 1495379614, "is_returning": 1, "is_installed": 1, "lon": -97.32567, "address": "120 E. Daggett Ave.", "num_docks_available": 3, "publisher": "fortworth.bcycle.com"}
{"name": "Sundance Square South", "is_renting": 1, "lat": 32.75395, "station_id": "bcycle_fortworth_2232", "channel": "US-Bike-Sharing-Channel", "num_bikes_available": 7, "country_code": "US", "last_reported": 1495379614, "is_returning": 1, "is_installed": 1, "lon": -97.33212, "address": "237 West 4th St.", "num_docks_available": 2, "publisher": "fortworth.bcycle.com"}
{"name": "Sundance Square North", "is_renting": 1, "lat": 32.75621, "station_id": "bcycle_fortworth_2233", "channel": "US-Bike-Sharing-Channel", "num_bikes_available": 3, "country_code": "US", "last_reported": 1495379614, "is_returning": 1, "is_installed": 1, "lon": -97.33079, "address": "228 East 2nd St.", "num_docks_available": 8, "publisher": "fortworth.bcycle.com"}
