{"name": "Fillmore Station", "is_renting": 0, "lat": 34.13301, "station_id": "bcycle_lametro_4160", "channel": "US-Bike-Sharing-Channel", "num_bikes_available": 0, "country_code": "US", "last_reported": 1495379590, "is_returning": 0, "is_installed": 0, "lon": -118.14856, "address": "95 Filmore St", "num_docks_available": 20, "publisher": "bikeshare.metro.net"}
{"name": "Memorial Park Station", "is_renting": 0, "lat": 34.14751, "station_id": "bcycle_lametro_4162", "channel": "US-Bike-Sharing-Channel", "num_bikes_available": 0, "country_code": "US", "last_reported": 1495379590, "is_returning": 0, "is_installed": 0, "lon": -118.14803, "address": "110 E Holly St", "num_docks_available": 20, "publisher": "bikeshare.metro.net"}
{"name": "Lake Station", "is_renting": 0, "lat": 34.15195, "station_id": "bcycle_lametro_4163", "channel": "US-Bike-Sharing-Channel", "num_bikes_available": 0, "country_code": "US", "last_reported": 1495379590, "is_returning": 0, "is_installed": 0, "lon": -118.13258, "address": "N Lake Ave @ Metro Station", "num_docks_available": 20, "publisher": "bikeshare.metro.net"}
{"name": "Allen Station", "is_renting": 0, "lat": 34.15203, "station_id": "bcycle_lametro_4164", "channel": "US-Bike-Sharing-Channel", "num_bikes_available": 0, "country_code": "US", "last_reported": 1495379590, "is_returning": 0, "is_installed": 0, "lon": -118.11338, "address": "331 Allen Ave", "num_docks_available": 20, "publisher": "bikeshare.metro.net"}
{"name": "Del Mar Station", "is_renting": 0, "lat": 34.14175, "station_id": "bcycle_lametro_4165", "channel": "US-Bike-Sharing-Channel", "num_bikes_available": 0, "country_code": "US", "last_reported": 1495379590, "is_returning": 0, "is_installed": 0, "lon": -118.14906, "address": "Del Mar Station @ Central Park", "num_docks_available": 20, "publisher": "bikeshare.metro.net"}
{"name": "Hill Avenue Branch Library", "is_renting": 0, "lat": 34.14469, "station_id": "bcycle_lametro_4166", "channel": "US-Bike-Sharing-Channel", "num_bikes_available": 0, "country_code": "US", "last_reported": 1495379590, "is_returning": 0, "is_installed": 0, "lon": -118.1217, "address": "1411 E Green St", "num_docks_available": 20, "publisher": "bikeshare.metro.net"}
{"name": "Pasadena at Dayton", "is_renting": 0, "lat": 34.14382, "station_id": "bcycle_lametro_4167", "channel": "US-Bike-Sharing-Channel", "num_bikes_available": 0, "country_code": "US", "last_reported": 1495379590, "is_returning": 0, "is_installed": 0, "lon": -118.1541, "address": "110 Pasadena Ave", "num_docks_available": 20, "publisher": "bikeshare.metro.net"}
{"name": "Oakland at Union", "is_renting": 0, "lat": 34.14696, "station_id": "bcycle_lametro_4169", "channel": "US-Bike-Sharing-Channel", "num_bikes_available": 0, "country_code": "US", "last_reported": 1495379590, "is_returning": 0, "is_installed": 0, "lon": -118.13984, "address": "1 N Oakland Ave", "num_docks_available": 20, "publisher": "bikeshare.metro.net"}
{"name": "Lake at Merrett", "is_renting": 0, "lat": 34.16071, "station_id": "bcycle_lametro_4170", "channel": "US-Bike-Sharing-Channel", "num_bikes_available": 0, "country_code": "US", "last_reported": 1495379590, "is_returning": 0, "is_installed": 0, "lon": -118.1324, "address": "900 N Lake Ave", "num_docks_available": 20, "publisher": "bikeshare.metro.net"}
{"name": "3rd & Milwaukee", "is_renting": 1, "lat": 39.72055, "station_id": "bcycle_denver_1646", "channel": "US-Bike-Sharing-Channel", "num_bikes_available": 9, "country_code": "US", "last_reported": 1495379599, "is_returning": 1, "is_installed": 1, "lon": -104.95253, "address": "299 Milwaukee St", "num_docks_available": 4, "publisher": "denver.bcycle.com"}
