{"name": "14th & Douglas", "is_renting": 1, "lat": 41.25892, "station_id": "bcycle_heartland_2900", "channel": "US-Bike-Sharing-Channel", "num_bikes_available": 5, "country_code": "US", "last_reported": 1495379598, "is_returning": 1, "is_installed": 1, "lon": -95.93458, "address": "1400 Douglas Street", "num_docks_available": 6, "publisher": "heartland.bcycle.com"}
{"name": "10th & Farnam", "is_renting": 1, "lat": 41.25724, "station_id": "bcycle_heartland_2901", "channel": "US-Bike-Sharing-Channel", "num_bikes_available": 11, "country_code": "US", "last_reported": 1495379598, "is_returning": 1, "is_installed": 1, "lon": -95.92854, "address": "301 S 10 ST", "num_docks_available": 0, "publisher": "heartland.bcycle.com"}
{"name": "Lewis & Clark Landing", "is_renting": 1, "lat": 41.26193, "station_id": "bcycle_heartland_2902", "channel": "US-Bike-Sharing-Channel", "num_bikes_available": 9, "country_code": "US", "last_reported": 1495379598, "is_returning": 1, "is_installed": 1, "lon": -95.92391, "address": "345 Riverfront Drive", "num_docks_available": 2, "publisher": "heartland.bcycle.com"}
{"name": "The Durham Museum", "is_renting": 1, "lat": 41.2515, "station_id": "bcycle_heartland_2903", "channel": "US-Bike-Sharing-Channel", "num_bikes_available": 2, "country_code": "US", "last_reported": 1495379598, "is_returning": 1, "is_installed": 1, "lon": -95.92903, "address": "801 S 10th St", "num_docks_available": 9, "publisher": "heartland.bcycle.com"}
{"name": "7th & Jones", "is_renting": 1, "lat": 41.25352, "station_id": "bcycle_heartland_2904", "channel": "US-Bike-Sharing-Channel", "num_bikes_available": 4, "country_code": "US", "last_reported": 1495379598, "is_returning": 1, "is_installed": 1, "lon": -95.9244, "address": "666 Jones St", "num_docks_available": 5, "publisher": "heartland.bcycle.com"}
{"name": "lot 18 south", "region_id": "region_282", "lat": 28.060037736433053, "station_id": "hub_1827", "channel": "US-Bike-Sharing-Channel", "num_bikes_available": 0, "country_code": "US", "last_reported": 1495379598, "is_returning": 1, "rental_methods": ["KEY", "APPLEPAY", "ANDROIDPAY", "TRANSITCARD", "ACCOUNTNUMBER", "PHONE"], "is_installed": 1, "lon": -82.40271538496017, "num_bikes_disabled": 0, "is_renting": 1, "address": "207 USF Sycamore Drive, Tampa", "num_docks_available": 6, "publisher": "usf.socialbicycles.com"}
{"name": "Flower & 7th", "is_renting": 1, "lat": 34.04855, "station_id": "bcycle_lametro_3005", "channel": "US-Bike-Sharing-Channel", "num_bikes_available": 12, "country_code": "US", "last_reported": 1495379590, "is_returning": 1, "is_installed": 1, "lon": -118.25905, "address": "723 Flower Street", "num_docks_available": 15, "publisher": "bikeshare.metro.net"}
{"name": "Olive & 8th", "is_renting": 0, "lat": 34.04554, "station_id": "bcycle_lametro_3006", "channel": "US-Bike-Sharing-Channel", "num_bikes_available": 15, "country_code": "US", "last_reported": 1495379590, "is_returning": 0, "is_installed": 1, "lon": -118.25667, "address": "729 S Olive Street", "num_docks_available": 9, "publisher": "bikeshare.metro.net"}
{"name": "5th & Grand", "is_renting": 1, "lat": 34.05048, "station_id": "bcycle_lametro_3007", "channel": "US-Bike-Sharing-Channel", "num_bikes_available": 18, "country_code": "US", "last_reported": 1495379590, "is_returning": 1, "is_installed": 1, "lon": -118.25459, "address": "557 S 5th Street", "num_docks_available": 5, "publisher": "bikeshare.metro.net"}
{"name": "Figueroa & 9th", "is_renting": 1, "lat": 34.04661, "station_id": "bcycle_lametro_3008", "channel": "US-Bike-Sharing-Channel", "num_bikes_available": 12, "country_code": "US", "last_reported": 1495379590, "is_returning": 1, "is_installed": 1, "lon": -118.26273, "address": "865 S Figueroa Street", "num_docks_available": 3, "publisher": "bikeshare.metro.net"}
