{"name": "Traction & Rose", "is_renting": 1, "lat": 34.04652, "station_id": "bcycle_lametro_3082", "channel": "US-Bike-Sharing-Channel", "num_bikes_available": 15, "country_code": "US", "last_reported": 1495379590, "is_returning": 1, "is_installed": 1, "lon": -118.23741, "address": "599 Traction Ave", "num_docks_available": 12, "publisher": "bikeshare.metro.net"}
{"name": "Banning Landing", "is_renting": 0, "lat": 33.76666, "station_id": "bcycle_lametro_4125", "channel": "US-Bike-Sharing-Channel", "num_bikes_available": 0, "country_code": "US", "last_reported": 1495379590, "is_returning": 0, "is_installed": 0, "lon": -118.26102, "address": "100 E Water St", "num_docks_available": 20, "publisher": "bikeshare.metro.net"}
{"name": "Cabrillo Beach", "is_renting": 0, "lat": 33.71098, "station_id": "bcycle_lametro_4126", "channel": "US-Bike-Sharing-Channel", "num_bikes_available": 0, "country_code": "US", "last_reported": 1495379590, "is_returning": 0, "is_installed": 0, "lon": -118.28467, "address": "3700 Shoshonean Rd", "num_docks_available": 20, "publisher": "bikeshare.metro.net"}
{"name": "Catalina Express", "is_renting": 0, "lat": 33.74892, "station_id": "bcycle_lametro_4127", "channel": "US-Bike-Sharing-Channel", "num_bikes_available": 0, "country_code": "US", "last_reported": 1495379590, "is_returning": 0, "is_installed": 0, "lon": -118.27519, "address": "100 Swinford St", "num_docks_available": 20, "publisher": "bikeshare.metro.net"}
{"name": "Crafted 22nd St Park", "is_renting": 0, "lat": 33.72582, "station_id": "bcycle_lametro_4129", "channel": "US-Bike-Sharing-Channel", "num_bikes_available": 0, "country_code": "US", "last_reported": 1495379590, "is_returning": 0, "is_installed": 0, "lon": -118.28051, "address": "110 E 22nd St", "num_docks_available": 20, "publisher": "bikeshare.metro.net"}
{"name": "DoubleTree Hotel", "is_renting": 0, "lat": 33.71926, "station_id": "bcycle_lametro_4130", "channel": "US-Bike-Sharing-Channel", "num_bikes_available": 0, "country_code": "US", "last_reported": 1495379590, "is_returning": 0, "is_installed": 0, "lon": -118.28272, "address": "30 Via Cabrillo Marina", "num_docks_available": 20, "publisher": "bikeshare.metro.net"}
{"name": "Downtown Harbor", "is_renting": 0, "lat": 33.73898, "station_id": "bcycle_lametro_4131", "channel": "US-Bike-Sharing-Channel", "num_bikes_available": 0, "country_code": "US", "last_reported": 1495379590, "is_returning": 0, "is_installed": 0, "lon": -118.27927, "address": "110 E 6th St", "num_docks_available": 20, "publisher": "bikeshare.metro.net"}
{"name": "Fanfare Fountain", "is_renting": 0, "lat": 33.74913, "station_id": "bcycle_lametro_4132", "channel": "US-Bike-Sharing-Channel", "num_bikes_available": 0, "country_code": "US", "last_reported": 1495379590, "is_returning": 0, "is_installed": 0, "lon": -118.28018, "address": "199 Regan St", "num_docks_available": 20, "publisher": "bikeshare.metro.net"}
{"name": "Ports O'Call", "is_renting": 0, "lat": 33.73352, "station_id": "bcycle_lametro_4133", "channel": "US-Bike-Sharing-Channel", "num_bikes_available": 0, "country_code": "US", "last_reported": 1495379590, "is_returning": 0, "is_installed": 0, "lon": -118.27779, "address": "1191 Nagoya Way", "num_docks_available": 17, "publisher": "bikeshare.metro.net"}
{"name": "USS IOWA", "is_renting": 0, "lat": 33.74136, "station_id": "bcycle_lametro_4134", "channel": "US-Bike-Sharing-Channel", "num_bikes_available": 0, "country_code": "US", "last_reported": 1495379590, "is_returning": 0, "is_installed": 0, "lon": -118.27807, "address": "444 S Harbor Blvd", "num_docks_available": 20, "publisher": "bikeshare.metro.net"}
