{"name": "Main Plaza", "is_renting": 1, "lat": 29.42479, "station_id": "bcycle_sanantonio_1817", "channel": "US-Bike-Sharing-Channel", "num_bikes_available": 6, "country_code": "US", "last_reported": 1495379605, "is_returning": 1, "is_installed": 1, "lon": -98.49442, "address": "Main Plaza @ S. Flores St.", "num_docks_available": 4, "publisher": "sanantonio.bcycle.com"}
{"name": "Market Square", "is_renting": 1, "lat": 29.42454, "station_id": "bcycle_sanantonio_1818", "channel": "US-Bike-Sharing-Channel", "num_bikes_available": 4, "country_code": "US", "last_reported": 1495379605, "is_returning": 1, "is_installed": 1, "lon": -98.49949, "address": "Dolorosa St. @ Market Sq.", "num_docks_available": 5, "publisher": "sanantonio.bcycle.com"}
{"name": "S. Alamo@Nueva", "is_renting": 1, "lat": 29.42078, "station_id": "bcycle_sanantonio_1819", "channel": "US-Bike-Sharing-Channel", "num_bikes_available": 8, "country_code": "US", "last_reported": 1495379605, "is_returning": 1, "is_installed": 1, "lon": -98.48818, "address": "S. Alamo @ Nueva St.", "num_docks_available": 5, "publisher": "sanantonio.bcycle.com"}
{"name": "Alamo Plaza", "is_renting": 1, "lat": 29.4265, "station_id": "bcycle_sanantonio_1820", "channel": "US-Bike-Sharing-Channel", "num_bikes_available": 4, "country_code": "US", "last_reported": 1495379605, "is_returning": 1, "is_installed": 1, "lon": -98.48703, "address": "E. Houston at Alamo St.", "num_docks_available": 3, "publisher": "sanantonio.bcycle.com"}
{"name": "Ellis Alley ", "is_renting": 1, "lat": 29.42277, "station_id": "bcycle_sanantonio_1821", "channel": "US-Bike-Sharing-Channel", "num_bikes_available": 10, "country_code": "US", "last_reported": 1495379605, "is_returning": 1, "is_installed": 1, "lon": -98.48011, "address": "219 Chestnut St.", "num_docks_available": 7, "publisher": "sanantonio.bcycle.com"}
{"name": "S.A.W.S.", "is_renting": 1, "lat": 29.45837, "station_id": "bcycle_sanantonio_1822", "channel": "US-Bike-Sharing-Channel", "num_bikes_available": 5, "country_code": "US", "last_reported": 1495379605, "is_returning": 1, "is_installed": 1, "lon": -98.48062, "address": "Valero Place @ Stadium Drive", "num_docks_available": 6, "publisher": "sanantonio.bcycle.com"}
{"name": "Hemisfair Park", "is_renting": 1, "lat": 29.41942, "station_id": "bcycle_sanantonio_1823", "channel": "US-Bike-Sharing-Channel", "num_bikes_available": 9, "country_code": "US", "last_reported": 1495379605, "is_returning": 1, "is_installed": 1, "lon": -98.48487, "address": "600 Hemisfair Plaza Way", "num_docks_available": 14, "publisher": "sanantonio.bcycle.com"}
{"name": "S. St. Mary's@S. Alamo", "is_renting": 1, "lat": 29.41595, "station_id": "bcycle_sanantonio_1824", "channel": "US-Bike-Sharing-Channel", "num_bikes_available": 3, "country_code": "US", "last_reported": 1495379605, "is_returning": 1, "is_installed": 1, "lon": -98.48974, "address": "825 S. St. Mary's St.", "num_docks_available": 4, "publisher": "sanantonio.bcycle.com"}
{"name": "Blue Star", "is_renting": 1, "lat": 29.40944, "station_id": "bcycle_sanantonio_1825", "channel": "US-Bike-Sharing-Channel", "num_bikes_available": 9, "country_code": "US", "last_reported": 1495379605, "is_returning": 1, "is_installed": 1, "lon": -98.49498, "address": "1414 S. Alamo St.", "num_docks_available": 6, "publisher": "sanantonio.bcycle.com"}
{"name": "Central Hub", "is_renting": 1, "lat": 29.41909, "station_id": "bcycle_sanantonio_1827", "channel": "US-Bike-Sharing-Channel", "num_bikes_available": 6, "country_code": "US", "last_reported": 1495379605, "is_returning": 1, "is_installed": 1, "lon": -98.48803, "address": "S. Alamo @ Cesar Chavez", "num_docks_available": 3, "publisher": "sanantonio.bcycle.com"}
