{"name": "305 E. Houston", "is_renting": 1, "lat": 29.4265, "station_id": "bcycle_sanantonio_2414", "channel": "US-Bike-Sharing-Channel", "num_bikes_available": 3, "country_code": "US", "last_reported": 1495379605, "is_returning": 1, "is_installed": 1, "lon": -98.48938, "address": "305 E Houston", "num_docks_available": 4, "publisher": "sanantonio.bcycle.com"}
{"name": "Freetail Brewery", "is_renting": 1, "lat": 29.40168, "station_id": "bcycle_sanantonio_2415", "channel": "US-Bike-Sharing-Channel", "num_bikes_available": 10, "country_code": "US", "last_reported": 1495379605, "is_returning": 1, "is_installed": 1, "lon": -98.48269, "address": "2000 S. Presa ", "num_docks_available": 12, "publisher": "sanantonio.bcycle.com"}
{"name": "Eco Centro", "is_renting": 1, "lat": 29.44598, "station_id": "bcycle_sanantonio_2416", "channel": "US-Bike-Sharing-Channel", "num_bikes_available": 10, "country_code": "US", "last_reported": 1495379605, "is_returning": 1, "is_installed": 1, "lon": -98.49362, "address": "100 E. Locust ", "num_docks_available": 12, "publisher": "sanantonio.bcycle.com"}
{"name": "Madison Square Park", "is_renting": 1, "lat": 29.43397, "station_id": "bcycle_sanantonio_2417", "channel": "US-Bike-Sharing-Channel", "num_bikes_available": 5, "country_code": "US", "last_reported": 1495379605, "is_returning": 1, "is_installed": 1, "lon": -98.49206, "address": "498 Richmond Avenue", "num_docks_available": 2, "publisher": "sanantonio.bcycle.com"}
{"name": "1800 Broadway", "is_renting": 1, "lat": 29.4429, "station_id": "bcycle_sanantonio_2420", "channel": "US-Bike-Sharing-Channel", "num_bikes_available": 6, "country_code": "US", "last_reported": 1495379605, "is_returning": 1, "is_installed": 1, "lon": -98.47669, "address": "1800 Broadway", "num_docks_available": 5, "publisher": "sanantonio.bcycle.com"}
{"name": "Mission Park Pavilions", "is_renting": 1, "lat": 29.36793, "station_id": "bcycle_sanantonio_2421", "channel": "US-Bike-Sharing-Channel", "num_bikes_available": 11, "country_code": "US", "last_reported": 1495379605, "is_returning": 1, "is_installed": 1, "lon": -98.47618, "address": "123 Padre Drive", "num_docks_available": 11, "publisher": "sanantonio.bcycle.com"}
{"name": "Mission Espada", "is_renting": 1, "lat": 29.31931, "station_id": "bcycle_sanantonio_2422", "channel": "US-Bike-Sharing-Channel", "num_bikes_available": 12, "country_code": "US", "last_reported": 1495379605, "is_returning": 1, "is_installed": 1, "lon": -98.4511, "address": "10040 Espada Drive", "num_docks_available": 10, "publisher": "sanantonio.bcycle.com"}
{"name": "The Luxury", "is_renting": 1, "lat": 29.43634, "station_id": "bcycle_sanantonio_2423", "channel": "US-Bike-Sharing-Channel", "num_bikes_available": 6, "country_code": "US", "last_reported": 1495379605, "is_returning": 1, "is_installed": 1, "lon": -98.48047, "address": "103 E Jones Ave", "num_docks_available": 5, "publisher": "sanantonio.bcycle.com"}
{"name": "Travis Park", "is_renting": 1, "lat": 29.42764, "station_id": "bcycle_sanantonio_2451", "channel": "US-Bike-Sharing-Channel", "num_bikes_available": 4, "country_code": "US", "last_reported": 1495379605, "is_returning": 1, "is_installed": 1, "lon": -98.48951, "address": "301 E Travis St,", "num_docks_available": 3, "publisher": "sanantonio.bcycle.com"}
{"name": "285 Mission Parkway", "is_renting": 1, "lat": 29.35324, "station_id": "bcycle_sanantonio_2856", "channel": "US-Bike-Sharing-Channel", "num_bikes_available": 8, "country_code": "US", "last_reported": 1495379605, "is_returning": 1, "is_installed": 1, "lon": -98.46937, "address": "285 Mission Pkwy.", "num_docks_available": 7, "publisher": "sanantonio.bcycle.com"}
