{"name": "40th & Broadway", "is_renting": 0, "lat": 39.05412, "station_id": "bcycle_kc_2861", "channel": "US-Bike-Sharing-Channel", "num_bikes_available": 5, "country_code": "US", "last_reported": 1495379627, "is_returning": 0, "is_installed": 1, "lon": -94.59122, "address": "400 40th Terrace", "num_docks_available": 8, "publisher": "kc.bcycle.com"}
{"name": "Westport & Mill", "is_renting": 0, "lat": 39.05191, "station_id": "bcycle_kc_2862", "channel": "US-Bike-Sharing-Channel", "num_bikes_available": 1, "country_code": "US", "last_reported": 1495379627, "is_returning": 0, "is_installed": 1, "lon": -94.59322, "address": "599 Westport Rd.", "num_docks_available": 10, "publisher": "kc.bcycle.com"}
{"name": "Westport & Main", "is_renting": 1, "lat": 39.05514, "station_id": "bcycle_kc_2863", "channel": "US-Bike-Sharing-Channel", "num_bikes_available": 5, "country_code": "US", "last_reported": 1495379627, "is_returning": 1, "is_installed": 1, "lon": -94.58643, "address": "1 Westport Rd.", "num_docks_available": 5, "publisher": "kc.bcycle.com"}
{"name": "The Nelson-Atkins Museum of Art", "is_renting": 0, "lat": 39.04611, "station_id": "bcycle_kc_2864", "channel": "US-Bike-Sharing-Channel", "num_bikes_available": 4, "country_code": "US", "last_reported": 1495379627, "is_returning": 0, "is_installed": 1, "lon": -94.58178, "address": "4525 Oak St.", "num_docks_available": 7, "publisher": "kc.bcycle.com"}
{"name": "Plaza Vista", "is_renting": 1, "lat": 39.03997, "station_id": "bcycle_kc_2865", "channel": "US-Bike-Sharing-Channel", "num_bikes_available": 4, "country_code": "US", "last_reported": 1495379627, "is_returning": 1, "is_installed": 1, "lon": -94.59759, "address": "4870 Roanoke Pkwy.", "num_docks_available": 7, "publisher": "kc.bcycle.com"}
{"name": "47th & JC Nichols Pkwy.", "is_renting": 1, "lat": 39.04191, "station_id": "bcycle_kc_2867", "channel": "US-Bike-Sharing-Channel", "num_bikes_available": 11, "country_code": "US", "last_reported": 1495379627, "is_returning": 1, "is_installed": 1, "lon": -94.58792, "address": "4701 Baltimore St.", "num_docks_available": 4, "publisher": "kc.bcycle.com"}
{"name": "Ward Parkway & Broadway", "is_renting": 1, "lat": 39.04039, "station_id": "bcycle_kc_2868", "channel": "US-Bike-Sharing-Channel", "num_bikes_available": 6, "country_code": "US", "last_reported": 1495379627, "is_returning": 1, "is_installed": 1, "lon": -94.59189, "address": "400 Ward Parkway", "num_docks_available": 5, "publisher": "kc.bcycle.com"}
{"name": "Brookside Shops", "is_renting": 1, "lat": 39.015, "station_id": "bcycle_kc_3275", "channel": "US-Bike-Sharing-Channel", "num_bikes_available": 2, "country_code": "US", "last_reported": 1495379627, "is_returning": 1, "is_installed": 1, "lon": -94.59028, "address": "194 W. 62nd Terrace", "num_docks_available": 9, "publisher": "kc.bcycle.com"}
{"name": "Gregory and Wornall", "is_renting": 1, "lat": 38.99975, "station_id": "bcycle_kc_3276", "channel": "US-Bike-Sharing-Channel", "num_bikes_available": 3, "country_code": "US", "last_reported": 1495379627, "is_returning": 1, "is_installed": 1, "lon": -94.59351, "address": "397 W. Gregory Blvd.", "num_docks_available": 7, "publisher": "kc.bcycle.com"}
{"name": "Jazz District", "is_renting": 1, "lat": 39.09101, "station_id": "bcycle_kc_3277", "channel": "US-Bike-Sharing-Channel", "num_bikes_available": 4, "country_code": "US", "last_reported": 1495379627, "is_returning": 1, "is_installed": 1, "lon": -94.56222, "address": "1812 Highland Ave.", "num_docks_available": 7, "publisher": "kc.bcycle.com"}
