{"availableBikes": 7, "latitude": 41.75182, "totalDocks": 11, "statusKey": 1, "stAddress2": "", "landMark": "971", "postalCode": "60649", "testStation": false, "location": "", "availableDocks": 4, "status": "IN_SERVICE", "longitude": -87.565211, "lastCommunicationTime": "2017-05-21 10:13:09", "id": 579, "statusValue": "In Service", "is_renting": true, "channel": "US-Bike-Sharing-Channel", "stationName": "Phillips Ave & 79th St", "country_code": "US", "stAddress1": "Phillips Ave & 79th St", "altitude": "", "city": "Chicago", "publisher": "feeds.divvybikes.com"}
{"availableBikes": 3, "latitude": 41.898203, "totalDocks": 15, "statusKey": 1, "stAddress2": "", "landMark": "1011", "postalCode": "60610", "testStation": false, "location": "", "availableDocks": 12, "status": "IN_SERVICE", "longitude": -87.637536, "lastCommunicationTime": "2017-05-21 10:13:10", "id": 620, "statusValue": "In Service", "is_renting": true, "channel": "US-Bike-Sharing-Channel", "stationName": "Orleans St & Chestnut St (NEXT Apts)", "country_code": "US", "stAddress1": "Orleans St & Chestnut St (NEXT Apts)", "altitude": "", "city": "Chicago", "publisher": "feeds.divvybikes.com"}
{"name": "City Hall", "is_renting": 1, "lat": 31.76148, "station_id": "bcycle_elpaso_3295", "channel": "US-Bike-Sharing-Channel", "num_bikes_available": 8, "country_code": "US", "last_reported": 1495379605, "is_returning": 1, "is_installed": 1, "lon": -106.48507, "address": "300 N Campbell St", "num_docks_available": 7, "publisher": "elpaso.bcycle.com"}
{"name": "EPCC", "is_renting": 1, "lat": 31.76324, "station_id": "bcycle_elpaso_3296", "channel": "US-Bike-Sharing-Channel", "num_bikes_available": 11, "country_code": "US", "last_reported": 1495379605, "is_returning": 1, "is_installed": 1, "lon": -106.49358, "address": "100 W Riio Grande Avenue", "num_docks_available": 4, "publisher": "elpaso.bcycle.com"}
{"name": "Downtown Transfer Center", "is_renting": 1, "lat": 31.75327, "station_id": "bcycle_elpaso_3297", "channel": "US-Bike-Sharing-Channel", "num_bikes_available": 10, "country_code": "US", "last_reported": 1495379605, "is_returning": 1, "is_installed": 1, "lon": -106.48934, "address": "630 S Santa Fe Street", "num_docks_available": 3, "publisher": "elpaso.bcycle.com"}
{"name": "Cleveland Square", "is_renting": 1, "lat": 31.75958, "station_id": "bcycle_elpaso_3298", "channel": "US-Bike-Sharing-Channel", "num_bikes_available": 10, "country_code": "US", "last_reported": 1495379605, "is_returning": 1, "is_installed": 1, "lon": -106.4916, "address": "510 N Santa Fe Street", "num_docks_available": 0, "publisher": "elpaso.bcycle.com"}
{"name": "UTEP Library", "is_renting": 1, "lat": 31.76782, "station_id": "bcycle_elpaso_3299", "channel": "US-Bike-Sharing-Channel", "num_bikes_available": 4, "country_code": "US", "last_reported": 1495379605, "is_returning": 1, "is_installed": 1, "lon": -106.50485, "address": "500 W University Avenue", "num_docks_available": 14, "publisher": "elpaso.bcycle.com"}
{"name": "Oregon & University", "is_renting": 1, "lat": 31.77293, "station_id": "bcycle_elpaso_3300", "channel": "US-Bike-Sharing-Channel", "num_bikes_available": 6, "country_code": "US", "last_reported": 1495379605, "is_returning": 1, "is_installed": 1, "lon": -106.50101, "address": "111 W University Ave", "num_docks_available": 5, "publisher": "elpaso.bcycle.com"}
{"name": "Pioneer Plaza", "is_renting": 1, "lat": 31.75846, "station_id": "bcycle_elpaso_3301", "channel": "US-Bike-Sharing-Channel", "num_bikes_available": 14, "country_code": "US", "last_reported": 1495379605, "is_returning": 1, "is_installed": 1, "lon": -106.48891, "address": "125 Pioneer Plaza", "num_docks_available": 0, "publisher": "elpaso.bcycle.com"}
{"name": "Anthony Street", "is_renting": 1, "lat": 31.75688, "station_id": "bcycle_elpaso_3302", "channel": "US-Bike-Sharing-Channel", "num_bikes_available": 12, "country_code": "US", "last_reported": 1495379605, "is_returning": 1, "is_installed": 1, "lon": -106.49418, "address": "116 Anthony Street", "num_docks_available": 1, "publisher": "elpaso.bcycle.com"}
